{
"type": "FeatureCollection",
"name": "label_point",
"crs": { "type": "name", "properties": { "name": "urn:ogc:def:crs:OGC:1.3:CRS84" } },
"features": [
{ "type": "Feature", "properties": { "name": "hokkaido" }, "geometry": { "type": "Point", "coordinates": [ 142.89309, 43.4712 ] } },
{ "type": "Feature", "properties": { "name": "tohoku" }, "geometry": { "type": "Point", "coordinates": [ 140.65163, 38.79007 ] } },
{ "type": "Feature", "properties": { "name": "tokyo" }, "geometry": { "type": "Point", "coordinates": [ 139.60982, 36.15985 ] } },
{ "type": "Feature", "properties": { "name": "hokuriku" }, "geometry": { "type": "Point", "coordinates": [ 137.14737, 36.56661 ] } },
{ "type": "Feature", "properties": { "name": "chubu" }, "geometry": { "type": "Point", "coordinates": [ 137.46307, 35.44293 ] } },
{ "type": "Feature", "properties": { "name": "kansai" }, "geometry": { "type": "Point", "coordinates": [ 135.4426, 35.03037 ] } },
{ "type": "Feature", "properties": { "name": "chugoku" }, "geometry": { "type": "Point", "coordinates": [ 133.07486, 34.79738 ] } },
{ "type": "Feature", "properties": { "name": "shikoku" }, "geometry": { "type": "Point", "coordinates": [ 133.61155, 33.72766 ] } },
{ "type": "Feature", "properties": { "name": "kyushu" }, "geometry": { "type": "Point", "coordinates": [ 131.21224, 32.72415 ] } }
]
}
